{
"type": "FeatureCollection",
"crs": { "type": "name", "properties": { "name": "urn:ogc:def:crs:EPSG::3857" } },
                                                                                
"features": [
{ "type": "Feature", "properties": { "id": 1, "住所変換用": "高崎市竜見町３番２", "lat": 36.3178924, "lng": 139.00785450000001, "標準地番号": "高崎-1", "住所": "高崎市竜見町３番２", "対前年変動率": "0", "価格": 80800, "地積": 209, "形状": "01:01.5", "現状": "住宅Ｗ2", "周辺現状": "一般住宅が多い市中心部に近い住宅地域", "道路状況": "北西4m市道", "下水道": "水道、ガス、下水", "距離": "高崎750m", "都市計画": "１住居(60" }, "geometry": { "type": "Point", "coordinates": [ 139.00785450000001, 36.3178924 ] } },
{ "type": "Feature", "properties": { "id": 2, "住所変換用": "高崎市柳川町１４６番４", "lat": 36.3275168, "lng": 139.0009323, "標準地番号": "※高崎-2", "住所": "高崎市柳川町１４６番４外", "対前年変動率": "△0.5", "価格": 96000, "地積": 305, "形状": "1:02", "現状": "住宅Ｗ2", "周辺現状": "中規模一般住宅が多い利便性の良い住宅地域", "道路状況": "南7m市道", "下水道": "水道、ガス、下水", "距離": "高崎1.5km", "都市計画": "１住居(60" }, "geometry": { "type": "Point", "coordinates": [ 139.0009323, 36.3275168 ] } },
{ "type": "Feature", "properties": { "id": 3, "住所変換用": "高崎市下小鳥町７６番９", "lat": 36.351362, "lng": 138.9910348, "標準地番号": "高崎-3", "住所": "高崎市下小鳥町７６番９", "対前年変動率": "0", "価格": 66700, "地積": 296, "形状": "01:01.5", "現状": "住宅Ｗ2", "周辺現状": "中規模一般住宅が多い郊外の住宅地域", "道路状況": "西9m市道", "下水道": "水道、下水", "距離": "北高崎2km", "都市計画": "１低専(40" }, "geometry": { "type": "Point", "coordinates": [ 138.9910348, 36.351362 ] } },
{ "type": "Feature", "properties": { "id": 4, "住所変換用": "高崎市上並榎町字八反田２０５番４", "lat": 36.3445069, "lng": 138.987588, "標準地番号": "※高崎-4", "住所": "高崎市上並榎町字八反田２０５番４", "対前年変動率": "1.2", "価格": 67800, "地積": 223, "形状": "01:01.2", "現状": "住宅Ｗ2", "周辺現状": "中規模一般住宅にアパート等が見られる住宅地域", "道路状況": "東8m市道", "下水道": "水道、下水", "距離": "北高崎1.8km", "都市計画": "２中専(60" }, "geometry": { "type": "Point", "coordinates": [ 138.987588, 36.3445069 ] } },
{ "type": "Feature", "properties": { "id": 5, "住所変換用": "高崎市足門町字鶴巻１６１４番１", "lat": 36.3964926, "lng": 138.99796420000001, "標準地番号": "高崎-5", "住所": "高崎市足門町字鶴巻１６１４番１", "対前年変動率": "△3.0", "価格": 44900, "地積": 192, "形状": "1:01", "現状": "住宅Ｗ1", "周辺現状": "一般住宅の中に農地等が見られる住宅地域", "道路状況": "南西4.8m市道", "下水道": "水道", "距離": "群馬総社5km", "都市計画": "１中専(50" }, "geometry": { "type": "Point", "coordinates": [ 138.99796420000001, 36.3964926 ] } },
{ "type": "Feature", "properties": { "id": 6, "住所変換用": "高崎市菊地町字大明神２６１番３", "lat": 36.3644296, "lng": 138.96565050000001, "標準地番号": "高崎-6", "住所": "高崎市菊地町字大明神２６１番３外", "対前年変動率": "△3.5", "価格": 38900, "地積": 197, "形状": "1.5:1", "現状": "住宅Ｗ2", "周辺現状": "中規模一般住宅の建ち並ぶ住宅地域", "道路状況": "東5.5m市道", "下水道": "水道", "距離": "群馬八幡4.1km", "都市計画": "「調区」(70" }, "geometry": { "type": "Point", "coordinates": [ 138.96565050000001, 36.3644296 ] } },
{ "type": "Feature", "properties": { "id": 7, "住所変換用": "高崎市井野町３６４番２", "lat": 36.3613093, "lng": 139.02431580000001, "標準地番号": "高崎-7", "住所": "高崎市井野町３６４番２", "対前年変動率": "△1.3", "価格": 62600, "地積": 219, "形状": "01:01.5", "現状": "住宅Ｗ2", "周辺現状": "一般住宅が建ち並ぶ区画整然とした住宅地域", "道路状況": "北6m市道", "下水道": "水道、ガス、下水", "距離": "井野600m", "都市計画": "１中専(60" }, "geometry": { "type": "Point", "coordinates": [ 139.02431580000001, 36.3613093 ] } },
{ "type": "Feature", "properties": { "id": 8, "住所変換用": "高崎市中居町３丁目３１番１２", "lat": 36.3156655, "lng": 139.0421989, "標準地番号": "高崎-8", "住所": "高崎市中居町３丁目３１番１２", "対前年変動率": "△0.6", "価格": 68500, "地積": 203, "形状": "01:01.5", "現状": "住宅Ｗ2", "周辺現状": "中規模一般住宅が建ち並ぶ住宅地域", "道路状況": "南6m市道", "下水道": "水道、ガス、下水", "距離": "高崎3km", "都市計画": "１中専(60" }, "geometry": { "type": "Point", "coordinates": [ 139.0421989, 36.3156655 ] } },
{ "type": "Feature", "properties": { "id": 9, "住所変換用": "高崎市中泉町字横堀３００番４４", "lat": 36.3732712, "lng": 139.0008948, "標準地番号": "高崎-9", "住所": "高崎市中泉町字横堀３００番４４", "対前年変動率": "△1.6", "価格": 50500, "地積": 237, "形状": "1:01", "現状": "住宅Ｗ2", "周辺現状": "中小規模一般住宅が建ち並ぶ住宅地域", "道路状況": "南4m市道", "下水道": "水道、ガス、下水", "距離": "北高崎4.3km", "都市計画": "１低専(40" }, "geometry": { "type": "Point", "coordinates": [ 139.0008948, 36.3732712 ] } },
{ "type": "Feature", "properties": { "id": 10, "住所変換用": "高崎市岩押町１６?２", "lat": 36.3212286, "lng": 139.0222311, "標準地番号": "高崎-10", "住所": "高崎市岩押町１２４番８「岩押町１６?２」", "対前年変動率": "2.2", "価格": 86900, "地積": 309, "形状": "1.5:1", "現状": "共同住宅Ｓ3", "周辺現状": "一般住宅、共同住宅、事務所等混在の住宅地域", "道路状況": "北6m市道", "下水道": "水道、ガス、下水", "距離": "高崎850m", "都市計画": "２住居(60" }, "geometry": { "type": "Point", "coordinates": [ 139.0222311, 36.3212286 ] } },
{ "type": "Feature", "properties": { "id": 11, "住所変換用": "高崎市高関町字岡久保５１３番２", "lat": 36.328448, "lng": 139.0274332, "標準地番号": "高崎-11", "住所": "高崎市高関町字岡久保５１３番２", "対前年変動率": "0", "価格": 72400, "地積": 201, "形状": "01:01.2", "現状": "住宅Ｗ2", "周辺現状": "中規模一般住宅が建ち並ぶ住宅地域", "道路状況": "北6m市道", "下水道": "水道、ガス、下水", "距離": "高崎2km", "都市計画": "１住居(60" }, "geometry": { "type": "Point", "coordinates": [ 139.0274332, 36.328448 ] } },
{ "type": "Feature", "properties": { "id": 12, "住所変換用": "高崎市下之城町字松村４７１番３", "lat": 36.3021213, "lng": 139.0351694, "標準地番号": "高崎-12", "住所": "高崎市下之城町字松村４７１番３外", "対前年変動率": "△0.7", "価格": 60300, "地積": 196, "形状": "1:01", "現状": "住宅Ｗ2", "周辺現状": "一般住宅、農家住宅、工場等が混在する住宅地域", "道路状況": "西6.3m市道", "下水道": "水道、ガス、下水", "距離": "高崎2.8km", "都市計画": "１住居(60" }, "geometry": { "type": "Point", "coordinates": [ 139.0351694, 36.3021213 ] } },
{ "type": "Feature", "properties": { "id": 13, "住所変換用": "高崎市矢島町字竹ノ内４３５番４", "lat": 36.3371178, "lng": 139.0513641, "標準地番号": "高崎-13", "住所": "高崎市矢島町字竹ノ内４３５番４", "対前年変動率": "△3.4", "価格": 43000, "地積": 283, "形状": "1.5:1", "現状": "住宅Ｗ2", "周辺現状": "一般住宅のほか畑地等が見られる住宅地域", "道路状況": "北7m市道", "下水道": "水道、下水", "距離": "高崎5km", "都市計画": "「調区」(70" }, "geometry": { "type": "Point", "coordinates": [ 139.0513641, 36.3371178 ] } },
{ "type": "Feature", "properties": { "id": 14, "住所変換用": "高崎市三ツ寺町字村前道下９６９番５", "lat": 36.3844777, "lng": 138.9981559, "標準地番号": "高崎-14", "住所": "高崎市三ツ寺町字村前道下９６９番５", "対前年変動率": "△2.6", "価格": 45800, "地積": 187, "形状": "01:01.2", "現状": "住宅Ｗ2", "周辺現状": "一般住宅の中に農地等が見られる住宅地域", "道路状況": "西4.5m市道", "下水道": "水道、下水", "距離": "北高崎4.4km", "都市計画": "１中専(50" }, "geometry": { "type": "Point", "coordinates": [ 138.9981559, 36.3844777 ] } },
{ "type": "Feature", "properties": { "id": 15, "住所変換用": "高崎市上里見町字町西８７５番２", "lat": 36.37912, "lng": 138.88672940000001, "標準地番号": "高崎-15", "住所": "高崎市上里見町字町西８７５番２", "対前年変動率": "△3.1", "価格": 24900, "地積": 182, "形状": "2:01", "現状": "住宅Ｗ2", "周辺現状": "一般住宅の中に農地等が見られる住宅地域", "道路状況": "北東5m市道北西側道", "下水道": "水道、下水", "距離": "群馬八幡8.2km", "都市計画": "（都）１中専(50" }, "geometry": { "type": "Point", "coordinates": [ 138.88672940000001, 36.37912 ] } },
{ "type": "Feature", "properties": { "id": 16, "住所変換用": "高崎市倉賀野町字上町５５５８番１４", "lat": 36.2962262, "lng": 139.0435009, "標準地番号": "※高崎-16", "住所": "高崎市倉賀野町字上町５５５８番１４", "対前年変動率": "△0.8", "価格": 61800, "地積": 211, "形状": "1.2:1", "現状": "住宅Ｗ2", "周辺現状": "一般住宅が建ち並ぶ区画整然とした住宅地域", "道路状況": "南6m市道", "下水道": "水道、ガス、下水", "距離": "倉賀野950m", "都市計画": "１中専(60" }, "geometry": { "type": "Point", "coordinates": [ 139.0435009, 36.2962262 ] } },
{ "type": "Feature", "properties": { "id": 17, "住所変換用": "高崎市上佐野町字屋敷北２６２番３", "lat": 36.3082489, "lng": 139.0176761, "標準地番号": "高崎-17", "住所": "高崎市上佐野町字屋敷北２６２番３外", "対前年変動率": "△2.1", "価格": 55400, "地積": 181, "形状": "01:01.2", "現状": "住宅Ｓ3", "周辺現状": "一般住宅、店舗併用住宅等が混在する住宅地域", "道路状況": "南西4.8m市道", "下水道": "水道、ガス、下水", "距離": "高崎1.9km", "都市計画": "１住居(60" }, "geometry": { "type": "Point", "coordinates": [ 139.0176761, 36.3082489 ] } },
{ "type": "Feature", "properties": { "id": 18, "住所変換用": "高崎市石原町字鶴辺３５４８番５３", "lat": 36.2977512, "lng": 139.0028912, "標準地番号": "高崎-18", "住所": "高崎市石原町字鶴辺３５４８番５３", "対前年変動率": "△4.0", "価格": 43500, "地積": 259, "形状": "01:01.5", "現状": "住宅Ｗ1", "周辺現状": "中規模一般住宅が多い丘陵地の住宅地域", "道路状況": "北5m市道", "下水道": "水道、ガス、下水", "距離": "高崎3.3km", "都市計画": "１低専(40" }, "geometry": { "type": "Point", "coordinates": [ 139.0028912, 36.2977512 ] } },
{ "type": "Feature", "properties": { "id": 19, "住所変換用": "高崎市片岡町３?２７?３", "lat": 36.3150534, "lng": 138.9909032, "標準地番号": "高崎-19", "住所": "高崎市片岡町３丁目２７番９「片岡町３?２７?３」", "対前年変動率": "△1.4", "価格": 62500, "地積": 187, "形状": "01:01.5", "現状": "住宅Ｗ2", "周辺現状": "一般住宅が多い区画整然とした住宅地域", "道路状況": "北東6m市道", "下水道": "水道、ガス、下水", "距離": "高崎2.3km", "都市計画": "１低専(40" }, "geometry": { "type": "Point", "coordinates": [ 138.9909032, 36.3150534 ] } },
{ "type": "Feature", "properties": { "id": 20, "住所変換用": "高崎市下小塙町字下原１３１５番１０", "lat": 36.345954, "lng": 138.9800915, "標準地番号": "高崎-20", "住所": "高崎市下小塙町字下原１３１５番１０外", "対前年変動率": "△2.1", "価格": 56300, "地積": 270, "形状": "1.2:1", "現状": "住宅Ｗ2", "周辺現状": "一般住宅の中に共同住宅等の見られる住宅地域", "道路状況": "東4m市道", "下水道": "水道、ガス、下水", "距離": "北高崎2.3km", "都市計画": "１住居(60" }, "geometry": { "type": "Point", "coordinates": [ 138.9800915, 36.345954 ] } },
{ "type": "Feature", "properties": { "id": 21, "住所変換用": "高崎市阿久津町字新田田１１３６番１", "lat": 36.2883924, "lng": 139.0503656, "標準地番号": "高崎-21", "住所": "高崎市阿久津町字新田田１１３６番１", "対前年変動率": "△2.1", "価格": 32300, "地積": 666, "形状": "01:01.5", "現状": "住宅Ｗ2", "周辺現状": "中規模一般住宅と農家住宅が混在する住宅地域", "道路状況": "北西6m市道", "下水道": "水道、下水", "距離": "倉賀野1.7km", "都市計画": "「調区」(70" }, "geometry": { "type": "Point", "coordinates": [ 139.0503656, 36.2883924 ] } },
{ "type": "Feature", "properties": { "id": 22, "住所変換用": "高崎市下里見町字小五郎谷戸９２９番１", "lat": 36.3660224, "lng": 138.9177938, "標準地番号": "高崎-22", "住所": "高崎市下里見町字小五郎谷戸９２９番１外", "対前年変動率": "△1.6", "価格": 30200, "地積": 232, "形状": "台形1:2", "現状": "住宅Ｗ2", "周辺現状": "一般住宅の中に空地も見られる郊外の住宅地域", "道路状況": "南西5.1m市道", "下水道": "水道、下水", "距離": "群馬八幡3.5km", "都市計画": "（都）１中専(50" }, "geometry": { "type": "Point", "coordinates": [ 138.9177938, 36.3660224 ] } },
{ "type": "Feature", "properties": { "id": 23, "住所変換用": "高崎市新町字諏訪３０４２番２", "lat": 36.2796482, "lng": 139.1177378, "標準地番号": "高崎-23", "住所": "高崎市新町字諏訪３０４２番２", "対前年変動率": "△1.4", "価格": 43000, "地積": 198, "形状": "01:01.5", "現状": "住宅Ｗ2", "周辺現状": "中規模一般住宅が多い既成住宅地域", "道路状況": "北4m市道", "下水道": "水道、ガス、下水", "距離": "新町990m", "都市計画": "１中専(60" }, "geometry": { "type": "Point", "coordinates": [ 139.1177378, 36.2796482 ] } },
{ "type": "Feature", "properties": { "id": 24, "住所変換用": "高崎市下豊岡町字原郷１７９番６", "lat": 36.3318422, "lng": 138.97981970000001, "標準地番号": "高崎-24", "住所": "高崎市下豊岡町字原郷１７９番６", "対前年変動率": "△4.3", "価格": 47200, "地積": 156, "形状": "台形1:1.2", "現状": "住宅Ｗ2", "周辺現状": "中小規模の一般住宅が建ち並ぶ住宅地域", "道路状況": "東4.5m市道", "下水道": "水道、下水", "距離": "群馬八幡2.3km", "都市計画": "１住居(60" }, "geometry": { "type": "Point", "coordinates": [ 138.97981970000001, 36.3318422 ] } },
{ "type": "Feature", "properties": { "id": 25, "住所変換用": "高崎市飯塚町字大道東１００３番１８", "lat": 36.3399125, "lng": 139.0022075, "標準地番号": "高崎-25", "住所": "高崎市飯塚町字大道東１００３番１８", "対前年変動率": "△1.0", "価格": 66900, "地積": 135, "形状": "1.5:1", "現状": "住宅Ｗ2", "周辺現状": "一般住宅、アパートが混在する駅に近い住宅地域", "道路状況": "南4m市道", "下水道": "水道、ガス、下水", "距離": "北高崎300m", "都市計画": "１住居(60" }, "geometry": { "type": "Point", "coordinates": [ 139.0022075, 36.3399125 ] } },
{ "type": "Feature", "properties": { "id": 26, "住所変換用": "高崎市剣崎町字森下２２４番３６", "lat": 36.3442371, "lng": 138.950522, "標準地番号": "高崎-26", "住所": "高崎市剣崎町字森下２２４番３６", "対前年変動率": "△4.6", "価格": 45500, "地積": 126, "形状": "1:01", "現状": "住宅LS2", "周辺現状": "小規模一般住宅、アパートが混在する住宅地域", "道路状況": "南5m市道", "下水道": "水道、下水", "距離": "群馬八幡490m", "都市計画": "１住居(60" }, "geometry": { "type": "Point", "coordinates": [ 138.950522, 36.3442371 ] } },
{ "type": "Feature", "properties": { "id": 27, "住所変換用": "高崎市江木町字若宮１４７１番１", "lat": 36.3321406, "lng": 139.0287913, "標準地番号": "高崎-27", "住所": "高崎市江木町字若宮１４７１番１（城東土地区画整理７４街区１４７１?１）", "対前年変動率": "1.2", "価格": 75300, "地積": 356, "形状": "1:01", "現状": "住宅LS2", "周辺現状": "一般住宅、アパート等が混在する新興住宅地域", "道路状況": "西6m区画街路", "下水道": "水道、ガス、下水", "距離": "高崎2.3km", "都市計画": "２中専(60" }, "geometry": { "type": "Point", "coordinates": [ 139.0287913, 36.3321406 ] } },
{ "type": "Feature", "properties": { "id": 28, "住所変換用": "高崎市小八木町２０２８番４", "lat": 36.3591149, "lng": 139.01918850000001, "標準地番号": "高崎-28", "住所": "高崎市小八木町２０２８番４", "対前年変動率": "△1.6", "価格": 65700, "地積": 425, "形状": "01:01.5", "現状": "住宅LS2", "周辺現状": "一般住宅等が建ち並ぶ区画整理済の住宅地域", "道路状況": "北6m市道", "下水道": "水道、ガス、下水", "距離": "井野700m", "都市計画": "１住居(60" }, "geometry": { "type": "Point", "coordinates": [ 139.01918850000001, 36.3591149 ] } },
{ "type": "Feature", "properties": { "id": 29, "住所変換用": "高崎市稲荷台町字村西３２番１１", "lat": 36.3853922, "lng": 139.0228541, "標準地番号": "高崎-29", "住所": "高崎市稲荷台町字村西３２番１１", "対前年変動率": "△2.5", "価格": 39400, "地積": 193, "形状": "01:01.5", "現状": "住宅Ｗ2", "周辺現状": "一般住宅が多く、農家住宅も混在する住宅地域", "道路状況": "北6m市道", "下水道": "水道", "距離": "新前橋2.9km", "都市計画": "「調区」(70" }, "geometry": { "type": "Point", "coordinates": [ 139.0228541, 36.3853922 ] } },
{ "type": "Feature", "properties": { "id": 30, "住所変換用": "群馬県高崎市吉井町吉井152", "lat": 36.2539423, "lng": 138.9875261, "標準地番号": "高崎-30", "住所": "高崎市吉井町吉井字北町１５２番５", "対前年変動率": "△4.0", "価格": 35700, "地積": 261, "形状": "台形1:1.2", "現状": "住宅Ｗ2", "周辺現状": "一般住宅の中に併用住宅等が混在する住宅地域", "道路状況": "西7m市道", "下水道": "水道、下水", "距離": "吉井440m", "都市計画": "（都）１住居(60" }, "geometry": { "type": "Point", "coordinates": [ 138.9875261, 36.2539423 ] } },
{ "type": "Feature", "properties": { "id": 31, "住所変換用": "高崎市倉賀野町字原東２８４１番", "lat": 36.298047, "lng": 139.0459407, "標準地番号": "高崎-31", "住所": "高崎市倉賀野町字原東２８４１番", "対前年変動率": "△2.9", "価格": 46500, "地積": 197, "形状": "1.5:1", "現状": "住宅Ｗ1", "周辺現状": "一般住宅のほかアパートや空地もある住宅地域", "道路状況": "西4.4m市道", "下水道": "水道、下水", "距離": "倉賀野2.5km", "都市計画": "１中専(60" }, "geometry": { "type": "Point", "coordinates": [ 139.0459407, 36.298047 ] } },
{ "type": "Feature", "properties": { "id": 32, "住所変換用": "高崎市天神町３７番", "lat": 36.3413554, "lng": 139.0190362, "標準地番号": "高崎-32", "住所": "高崎市天神町３７番", "対前年変動率": "△1.8", "価格": 66000, "地積": 187, "形状": "1.5:1", "現状": "住宅Ｗ2", "周辺現状": "中規模一般住宅が多い区画整然とした住宅地域", "道路状況": "西4m市道", "下水道": "水道、ガス、下水", "距離": "高崎問屋町860m", "都市計画": "２中専(60" }, "geometry": { "type": "Point", "coordinates": [ 139.0190362, 36.3413554 ] } },
{ "type": "Feature", "properties": { "id": 33, "住所変換用": "高崎市新町字蛇場見１８７３番３", "lat": 36.2669543, "lng": 139.104771, "標準地番号": "高崎-33", "住所": "高崎市新町字蛇場見１８７３番３", "対前年変動率": "△1.5", "価格": 39900, "地積": 196, "形状": "台形1:1", "現状": "住宅Ｗ2", "周辺現状": "中規模の一般住宅が多い住宅地域", "道路状況": "南西4m市道", "下水道": "水道、ガス、下水", "距離": "新町720m", "都市計画": "１中専(60" }, "geometry": { "type": "Point", "coordinates": [ 139.104771, 36.2669543 ] } },
{ "type": "Feature", "properties": { "id": 34, "住所変換用": "高崎市上中居町字咲地蔵４８３番１２", "lat": 36.3135947, "lng": 139.02674830000001, "標準地番号": "高崎-34", "住所": "高崎市上中居町字咲地蔵４８３番１２", "対前年変動率": "1.2", "価格": 69300, "地積": 203, "形状": "1:01", "現状": "住宅Ｗ2", "周辺現状": "一般住宅の中に営業所等が見られる住宅地域", "道路状況": "北4.5m市道", "下水道": "水道、ガス、下水", "距離": "高崎2km", "都市計画": "１住居(60" }, "geometry": { "type": "Point", "coordinates": [ 139.02674830000001, 36.3135947 ] } },
{ "type": "Feature", "properties": { "id": 35, "住所変換用": "高崎市倉賀野町字上稲荷前９３８番１", "lat": 36.298047, "lng": 139.0459407, "標準地番号": "高崎-35", "住所": "高崎市倉賀野町字上稲荷前９３８番１外（倉賀野西土地区画整理事業８街区）", "対前年変動率": "△0.5", "価格": 58200, "地積": 180, "形状": "01:01.2", "現状": "住宅Ｗ2", "周辺現状": "中小規模一般住宅が多い区画整然とした住宅地域", "道路状況": "西5m区画街路", "下水道": "水道、ガス、下水", "距離": "倉賀野1.2km", "都市計画": "１中専(60" }, "geometry": { "type": "Point", "coordinates": [ 139.0459407, 36.298047 ] } },
{ "type": "Feature", "properties": { "id": 36, "住所変換用": "高崎市箕郷町西明屋字明屋１１３番２", "lat": 36.3950416, "lng": 138.9557839, "標準地番号": "高崎-36", "住所": "高崎市箕郷町西明屋字明屋１１３番２", "対前年変動率": "△3.9", "価格": 34600, "地積": 266, "形状": "台形1:1", "現状": "住宅Ｗ2", "周辺現状": "一般住宅の中に空地等が見られる既成住宅地域", "道路状況": "北西4m市道", "下水道": "水道、下水", "距離": "北高崎8.6km", "都市計画": "（都）１住居(60" }, "geometry": { "type": "Point", "coordinates": [ 138.9557839, 36.3950416 ] } },
{ "type": "Feature", "properties": { "id": 37, "住所変換用": "高崎市箕郷町生原字滝沢１０２１番１２", "lat": 36.3959195, "lng": 138.9665803, "標準地番号": "高崎-37", "住所": "高崎市箕郷町生原字滝沢１０２１番１２", "対前年変動率": "△3.4", "価格": 33600, "地積": 242, "形状": "01:01.2", "現状": "住宅Ｗ2", "周辺現状": "一般住宅が多い農地も見られる住宅地域", "道路状況": "西5.7m市道", "下水道": "水道、下水", "距離": "群馬総社6.8km", "都市計画": "（都）１中専(60" }, "geometry": { "type": "Point", "coordinates": [ 138.9665803, 36.3959195 ] } },
{ "type": "Feature", "properties": { "id": 38, "住所変換用": "高崎市吉井町吉井川字滝ノ宮５０１番２", "lat": 36.2513666, "lng": 138.99209310000001, "標準地番号": "高崎-38", "住所": "高崎市吉井町吉井川字滝ノ宮５０１番２", "対前年変動率": "△4.0", "価格": 28500, "地積": 309, "形状": "01:01.5", "現状": "住宅Ｗ2", "周辺現状": "一般住宅の中に空地が見られる傾斜地の住宅地域", "道路状況": "北西4.5m市道", "下水道": "水道、下水", "距離": "吉井1.3km", "都市計画": "（都）１低専(40" }, "geometry": { "type": "Point", "coordinates": [ 138.99209310000001, 36.2513666 ] } },
{ "type": "Feature", "properties": { "id": 39, "住所変換用": "高崎市八島町６３番１外（高崎駅周辺（西口）４街区６３?１外）", "lat": 36.3226144, "lng": 139.0100486, "標準地番号": "高崎5-1", "住所": "高崎市八島町６３番１外（高崎駅周辺（西口）４街区６３?１外）", "対前年変動率": "△2.8", "価格": 345000, "地積": 265, "形状": "台形1:2", "現状": "店舗兼事務所Ｓ7", "周辺現状": "中高層の再開発ビル等が建ち並ぶ駅前商業地域", "道路状況": "北28m県道西側道", "下水道": "水道、ガス、下水", "距離": "高崎110m", "都市計画": "商業(80" }, "geometry": { "type": "Point", "coordinates": [ 139.0100486, 36.3226144 ] } },
{ "type": "Feature", "properties": { "id": 40, "住所変換用": "高崎市連雀町８５番１", "lat": 36.3253726, "lng": 139.0067487, "標準地番号": "※高崎5-2", "住所": "高崎市連雀町８５番１外", "対前年変動率": "△3.6", "価格": 188000, "地積": 530, "形状": "不整形1:2", "現状": "銀行RC4", "周辺現状": "中低層の店舗、銀行等が建ち並ぶ既成商業地域", "道路状況": "東20m県道", "下水道": "水道、ガス、下水", "距離": "高崎820m", "都市計画": "商業(80" }, "geometry": { "type": "Point", "coordinates": [ 139.0067487, 36.3253726 ] } },
{ "type": "Feature", "properties": { "id": 41, "住所変換用": "高崎市中紺屋町２２番１", "lat": 36.3269336, "lng": 139.005246, "標準地番号": "※高崎5-3", "住所": "高崎市中紺屋町２２番１外", "対前年変動率": "△4.0", "価格": 79900, "地積": 263, "形状": "1:04", "現状": "店舗兼住宅Ｗ2", "周辺現状": "小売店舗、飲食店等が建ち並ぶ既存の商業地域", "道路状況": "東7.8m市道", "下水道": "水道、ガス、下水", "距離": "高崎1km", "都市計画": "商業(80" }, "geometry": { "type": "Point", "coordinates": [ 139.005246, 36.3269336 ] } },
{ "type": "Feature", "properties": { "id": 42, "住所変換用": "高崎市住吉町９番１", "lat": 36.3351776, "lng": 139.00118470000001, "標準地番号": "高崎5-4", "住所": "高崎市住吉町９番１", "対前年変動率": "△2.9", "価格": 73200, "地積": 196, "形状": "01:02.5", "現状": "店舗兼住宅Ｓ2", "周辺現状": "中小規模の小売店舗が建ち並ぶ既成商業地域", "道路状況": "西20m県道", "下水道": "水道、ガス、下水", "距離": "北高崎470m", "都市計画": "商業(80" }, "geometry": { "type": "Point", "coordinates": [ 139.00118470000001, 36.3351776 ] } },
{ "type": "Feature", "properties": { "id": 43, "住所変換用": "高崎市問屋町３丁目９番１０", "lat": 36.3488795, "lng": 139.013328, "標準地番号": "高崎5-5", "住所": "高崎市問屋町３丁目９番１０", "対前年変動率": "△2.9", "価格": 64600, "地積": 771, "形状": "1.5:1", "現状": "店舗SRC1", "周辺現状": "各種の卸店舗、事務所等が建ち並ぶ商業地域", "道路状況": "南西13.4m市道、背面道", "下水道": "水道、ガス、下水", "距離": "高崎問屋町530m", "都市計画": "商業(80" }, "geometry": { "type": "Point", "coordinates": [ 139.013328, 36.3488795 ] } },
{ "type": "Feature", "properties": { "id": 44, "住所変換用": "高崎市倉賀野町字西上正六３２番１外（高崎操車場跡地周辺７５街区１０）", "lat": 36.298047, "lng": 139.0459407, "標準地番号": "高崎5-6", "住所": "高崎市倉賀野町字西上正六３２番１外（高崎操車場跡地周辺７５街区１０）", "対前年変動率": "△2.1", "価格": 56500, "地積": 957, "形状": "1:02", "現状": "事務所兼工場Ｓ2", "周辺現状": "店舗、事務所、営業所等が建ち並ぶ路線商業地域", "道路状況": "北東13.5m県道", "下水道": "水道、下水", "距離": "倉賀野2.2km", "都市計画": "準工(60" }, "geometry": { "type": "Point", "coordinates": [ 139.0459407, 36.298047 ] } },
{ "type": "Feature", "properties": { "id": 45, "住所変換用": "高崎市飯塚町字島前１５５４番３", "lat": 36.3424011, "lng": 139.01483450000001, "標準地番号": "※高崎5-7", "住所": "高崎市飯塚町字島前１５５４番３", "対前年変動率": "△3.8", "価格": 76000, "地積": 116, "形状": "1.2:1", "現状": "店舗兼住宅Ｗ2", "周辺現状": "低層の小規模店舗が建ち並ぶ路線商業地域", "道路状況": "南東10m県道", "下水道": "水道、下水", "距離": "高崎問屋町720m", "都市計画": "近商(80" }, "geometry": { "type": "Point", "coordinates": [ 139.01483450000001, 36.3424011 ] } },
{ "type": "Feature", "properties": { "id": 46, "住所変換用": "高崎市柳川町１６番４", "lat": 36.327978, "lng": 139.0039377, "標準地番号": "高崎5-8", "住所": "高崎市柳川町１６番４外", "対前年変動率": "△3.9", "価格": 87700, "地積": 84, "形状": "01:01.5", "現状": "店舗兼住宅S4", "周辺現状": "小規模な飲食店が建ち並ぶ商業地域", "道路状況": "東11.7m市道北側道", "下水道": "水道、ガス、下水", "距離": "高崎1.3km", "都市計画": "商業(80" }, "geometry": { "type": "Point", "coordinates": [ 139.0039377, 36.327978 ] } },
{ "type": "Feature", "properties": { "id": 47, "住所変換用": "高崎市和田町１番１１「和田町１０?１１」", "lat": 36.3159452, "lng": 139.011129, "標準地番号": "高崎5-9", "住所": "高崎市和田町１番１１「和田町１０?１１」", "対前年変動率": "△3.3", "価格": 79500, "地積": 290, "形状": "台形1.2:1", "現状": "店舗兼住宅RC3", "周辺現状": "小売店舗、事務所等が建ち並ぶ既成商業地域", "道路状況": "南西20m県道", "下水道": "水道、ガス、下水", "距離": "高崎720m", "都市計画": "商業(80" }, "geometry": { "type": "Point", "coordinates": [ 139.011129, 36.3159452 ] } },
{ "type": "Feature", "properties": { "id": 48, "住所変換用": "高崎市請地町１１番１３", "lat": 36.3339944, "lng": 139.0040513, "標準地番号": "高崎5-10", "住所": "高崎市請地町１１番１３", "対前年変動率": "△3.7", "価格": 78000, "地積": 463, "形状": "台形1:2", "現状": "店舗兼住宅Ｓ3", "周辺現状": "小売店舗を中心に住宅等が介在する商業地域", "道路状況": "北16m県道", "下水道": "水道、ガス、下水", "距離": "北高崎800m", "都市計画": "商業(80" }, "geometry": { "type": "Point", "coordinates": [ 139.0040513, 36.3339944 ] } },
{ "type": "Feature", "properties": { "id": 49, "住所変換用": "高崎市北通町６３番２", "lat": 36.3280836, "lng": 139.00823740000001, "標準地番号": "高崎5-11", "住所": "高崎市北通町６３番２外", "対前年変動率": "△3.8", "価格": 82700, "地積": 133, "形状": "台形1:1.2", "現状": "店舗兼住宅Ｓ4", "周辺現状": "小規模店舗併用住宅が建ち並ぶ近隣商業地域", "道路状況": "北13m国道", "下水道": "水道、ガス、下水", "距離": "高崎800m", "都市計画": "商業(80" }, "geometry": { "type": "Point", "coordinates": [ 139.00823740000001, 36.3280836 ] } },
{ "type": "Feature", "properties": { "id": 50, "住所変換用": "高崎市通町５２番１", "lat": 36.3238505, "lng": 139.0088792, "標準地番号": "高崎5-12", "住所": "高崎市通町５２番１", "対前年変動率": "△3.3", "価格": 178000, "地積": 138, "形状": "01:04.5", "現状": "店舗兼住宅RC4", "周辺現状": "小売店舗が建ち並ぶ駅に近い商業地域", "道路状況": "西6.7m市道", "下水道": "水道、ガス、下水", "距離": "高崎400m", "都市計画": "商業(80" }, "geometry": { "type": "Point", "coordinates": [ 139.0088792, 36.3238505 ] } },
{ "type": "Feature", "properties": { "id": 51, "住所変換用": "高崎市江木町字西前沖１１８番７", "lat": 36.3276442, "lng": 139.0211886, "標準地番号": "高崎5-13", "住所": "高崎市江木町字西前沖１１８番７", "対前年変動率": "△3.5", "価格": 74300, "地積": 337, "形状": "1:02", "現状": "事務所兼工場LS2", "周辺現状": "店舗、事務所、一般住宅等が混在する商業地域", "道路状況": "北10m国道", "下水道": "水道、下水", "距離": "高崎1.2km", "都市計画": "近商(80" }, "geometry": { "type": "Point", "coordinates": [ 139.0211886, 36.3276442 ] } },
{ "type": "Feature", "properties": { "id": 52, "住所変換用": "高崎市栄町１１番１３外「栄町１７?２４」", "lat": 36.3205264, "lng": 139.0147747, "標準地番号": "高崎5-14", "住所": "高崎市栄町１１番１３外「栄町１７?２４」", "対前年変動率": "2.1", "価格": 245000, "地積": 1117, "形状": "1:02", "現状": "事務所Ｓ5", "周辺現状": "中高層の店舗ビルを中心とする駅東口の商業地域", "道路状況": "西32m県道", "下水道": "水道、ガス、下水", "距離": "高崎250m", "都市計画": "商業(80" }, "geometry": { "type": "Point", "coordinates": [ 139.0147747, 36.3205264 ] } },
{ "type": "Feature", "properties": { "id": 53, "住所変換用": "高崎市中居町４丁目１２番３", "lat": 36.3140155, "lng": 139.0403713, "標準地番号": "高崎5-15", "住所": "高崎市中居町４丁目１２番３外", "対前年変動率": "△1.9", "価格": 73400, "地積": 688, "形状": "01:01.5", "現状": "店舗Ｓ2", "周辺現状": "郊外型小売店舗、共同住宅等が混在する商業地域", "道路状況": "北東20m市道", "下水道": "水道、ガス、下水", "距離": "倉賀野2.3km", "都市計画": "準住居(60" }, "geometry": { "type": "Point", "coordinates": [ 139.0403713, 36.3140155 ] } },
{ "type": "Feature", "properties": { "id": 54, "住所変換用": "高崎市箕郷町西明屋字連雀町２８８番６", "lat": 36.3950416, "lng": 138.9557839, "標準地番号": "高崎5-16", "住所": "高崎市箕郷町西明屋字連雀町２８８番６外", "対前年変動率": "△4.6", "価格": 35400, "地積": 262, "形状": "01:01.2", "現状": "店舗兼住宅Ｓ2", "周辺現状": "小規模小売店舗や一般住宅が混在する商業地域", "道路状況": "東7m県道", "下水道": "水道、下水", "距離": "北高崎8km", "都市計画": "（都）近商(80" }, "geometry": { "type": "Point", "coordinates": [ 138.9557839, 36.3950416 ] } },
{ "type": "Feature", "properties": { "id": 55, "住所変換用": "高崎市中泉町６３５番２", "lat": 36.3722408, "lng": 139.0005115, "標準地番号": "高崎5-17", "住所": "高崎市中泉町６３５番２", "対前年変動率": "△3.3", "価格": 72800, "地積": 164, "形状": "01:01.5", "現状": "店舗兼住宅Ｓ2", "周辺現状": "店舗兼住宅、飲食店等が建ち並ぶ路線商業地域", "道路状況": "東20m県道", "下水道": "水道、下水", "距離": "井野3.5km", "都市計画": "近商(80" }, "geometry": { "type": "Point", "coordinates": [ 139.0005115, 36.3722408 ] } },
{ "type": "Feature", "properties": { "id": 56, "住所変換用": "高崎市並榎町５１番１", "lat": 36.3438877, "lng": 138.994096, "標準地番号": "高崎5-18", "住所": "高崎市並榎町５１番１", "対前年変動率": "△3.4", "価格": 82800, "地積": 509, "形状": "台形1.5:1", "現状": "店舗兼事務所LS1", "周辺現状": "店舗、事務所、営業所等が建ち並ぶ路線商業地域", "道路状況": "南東29m国道", "下水道": "水道、下水", "距離": "北高崎1.1km", "都市計画": "準工(60" }, "geometry": { "type": "Point", "coordinates": [ 138.994096, 36.3438877 ] } },
{ "type": "Feature", "properties": { "id": 57, "住所変換用": "高崎市中里見町字根岸１２１番２", "lat": 36.3653335, "lng": 138.91202770000001, "標準地番号": "高崎5-19", "住所": "高崎市中里見町字根岸１２１番２外", "対前年変動率": "△4.7", "価格": 40600, "地積": 732, "形状": "1.2:1", "現状": "店舗兼住宅Ｗ1", "周辺現状": "店舗、住宅等が混在する郊外路線商業地域", "道路状況": "北東8.6m国道", "下水道": "水道、下水", "距離": "群馬八幡5.8km", "都市計画": "（都）２住居(60" }, "geometry": { "type": "Point", "coordinates": [ 138.91202770000001, 36.3653335 ] } },
{ "type": "Feature", "properties": { "id": 58, "住所変換用": "高崎市上豊岡町５７１番７", "lat": 36.3397378, "lng": 138.965904, "標準地番号": "高崎9-1", "住所": "高崎市上豊岡町５７１番７", "対前年変動率": "△4.0", "価格": 26400, "地積": 2229, "形状": "1:02", "現状": "工場兼事務所", "周辺現状": "中小規模の工場が建ち並ぶ工業団地", "道路状況": "南12m市道背面道", "下水道": "水道、下水", "距離": "群馬八幡900m", "都市計画": "工専(60" }, "geometry": { "type": "Point", "coordinates": [ 138.965904, 36.3397378 ] } },
{ "type": "Feature", "properties": { "id": 59, "住所変換用": "高崎市小八木町字薬研寺３０７番２", "lat": 36.3616813, "lng": 139.0203244, "標準地番号": "高崎9-2", "住所": "高崎市小八木町字薬研寺３０７番２", "対前年変動率": "△4.2", "価格": 24900, "地積": 17464, "形状": "台形1:2", "現状": "工場兼事務所", "周辺現状": "中小規模の工場や営業所が建ち並ぶ工業団地", "道路状況": "西12m市道背面道", "下水道": "水道、下水", "距離": "井野1.4km", "都市計画": "工専(60" }, "geometry": { "type": "Point", "coordinates": [ 139.0203244, 36.3616813 ] } },
{ "type": "Feature", "properties": { "id": 60, "住所変換用": "高崎市宮原町３番９", "lat": 36.3064325, "lng": 139.04517670000001, "標準地番号": "高崎9-3", "住所": "高崎市宮原町３番９", "対前年変動率": "△4.4", "価格": 28300, "地積": 3335, "形状": "台形1:1", "現状": "工場", "周辺現状": "大規模工場、中小規模工場が混在する工業地域", "道路状況": "南東15.5m市道北東側道", "下水道": "水道、下水", "距離": "倉賀野1.1km", "都市計画": "工専(60" }, "geometry": { "type": "Point", "coordinates": [ 139.04517670000001, 36.3064325 ] } }
]
}
